{"MeteoStanice":[
{"StationID":"14530","StationName":"Дринић","lon":"16.46722","lat":"44.51083","alt":"730.00","desc":"<p>Синоптичка метеоролошка станица <b>Дринић</b></p><p>Адреса:Дринић бб, 79290</p>"},
{"StationID":"14531","StationName":"Рибник","lon":"16.815","lat":"44.40667","alt":"305.00","desc":"<p>Синоптичка метеоролошка станица <b>Рибник</b></p><p>Адреса:Омладинска,Горњи Рибник, 79288</p>"},
{"StationID":"14534","StationName":"Мраковица","lon":"16.915","lat":"45.011944","alt":"766.00","desc":"<p>Синоптичка метеоролошка станица <b>Мраковица</b></p><p>Адреса:</p>"},
{"StationID":"14535","StationName":"Нови Град","lon":"16.38444","lat":"45.05056","alt":"134.00","desc":"<p>Синоптичка метеоролошка станица <b>Нови Град</b></p><p>Адреса:Петра Кочића 23a. 79220</p>"},
{"StationID":"14536","StationName":"Приједор","lon":"16.72111","lat":"44.97556","alt":"141.00","desc":"<p>Синоптичка метеоролошка станица <b>Приједор</b></p><p>Адреса:Алеја Козарског одреда бб, 79100</p>"},
{"StationID":"14538","StationName":"Србац","lon":"17.52167","lat":"45.10417","alt":"102.00","desc":"<p>Синоптичка метеоролошка станица <b>Србац</b></p><p>Адреса:Савска бб,78420</p>"},
{"StationID":"14539","StationName":"Градишка","lon":"17.256389","lat":"45.140833","alt":"102.00","desc":"<p>Синоптичка метеоролошка станица <b>Градишка</b></p><p>Адреса:</p>"},
{"StationID":"14540","StationName":"Бањалука Маховљани","lon":"17.3036972","lat":"44.9349639","alt":"116.00","desc":"<p>Синоптичка метеоролошка станица <b>Бањалука Маховљани</b></p><p>Адреса:</p>"},
{"StationID":"14542","StationName":"Бањалука","lon":"17.21278","lat":"44.80806","alt":"153.00","desc":"<p>Синоптичка метеоролошка станица <b>Бањалука</b></p><p>Адреса:Књаза Милоша 11 , 78000</p>"},
{"StationID":"14545","StationName":"Мркоњић Град","lon":"17.08361","lat":"44.41861","alt":"575.00","desc":"<p>Синоптичка метеоролошка станица <b>Мркоњић Град</b></p><p>Адреса:Светог Саве бб, 70260</p>"},
{"StationID":"14547","StationName":"Шипово","lon":"17.084722","lat":"44.288611","alt":"458.00","desc":"<p>Синоптичка метеоролошка станица <b>Шипово</b></p><p>Адреса:</p>"},{"StationID":"14562","StationName":"Бијељина","lon":"19.20111","lat":"44.75611","alt":"97.00","desc":"<p>Синоптичка метеоролошка станица <b>Бијељина</b></p><p>Адреса:Лазе Костића 369, 76300</p>"},
{"StationID":"14563","StationName":"Зворник","lon":"19.15","lat":"44.433333","alt":"146.00","desc":"<p>Синоптичка метеоролошка станица <b>Зворник</b></p><p>Адреса:</p>"},
{"StationID":"14564","StationName":"Сребреница","lon":"19.3","lat":"44.0833","alt":"377.00","desc":"<p>Синоптичка метеоролошка станица <b>Сребреница</b></p><p>Адреса:Учина Башча бб, 75430 </p>"},
{"StationID":"14565","StationName":"Хан Пијесак","lon":"18.95167","lat":"44.08833","alt":"1138.00","desc":"<p>Синоптичка метеоролошка станица <b>Хан Пијесак</b></p><p>Адреса:Светозара Косорића бб, 71360</p>"},
{"StationID":"14649","StationName":"Невесиње","lon":"18.104722","lat":"43.2975","alt":"847.00","desc":"<p>Синоптичка метеоролошка станица <b>Невесиње</b></p><p>Адреса:</p>"},
{"StationID":"14655","StationName":"Гацко","lon":"18.515833","lat":"43.174167","alt":"947.00","desc":"<p>Синоптичка метеоролошка станица <b>Гацко</b></p><p>Адреса:</p>"},
{"StationID":"14656","StationName":"Чемерно","lon":"18.61222","lat":"43.25444","alt":"1304.00","desc":"<p>Синоптичка метеоролошка станица <b>Чемерно</b></p><p>Адреса:Чемерно бб, 89243</p>"},
{"StationID":"14658","StationName":"Соколац","lon":"18.78917","lat":"43.92611","alt":"913.00","desc":"<p>Синоптичка метеоролошка станица <b>Соколац</b></p><p>Адреса:Мајдан бб, 71350</p>"},
{"StationID":"14659","StationName":"Калиновик","lon":"18.4463806","lat":"43.5045722","alt":"1070.00","desc":"<p>Синоптичка метеоролошка станица <b>Калиновик</b></p><p>Адреса:</p>"},
{"StationID":"14662","StationName":"Вишеград","lon":"19.295","lat":"43.79639","alt":"416.00","desc":"<p>Синоптичка метеоролошка станица <b>Вишеград</b></p><p>Адреса:Конфекција 'Напријед', 73240</p>"},
{"StationID":"14663","StationName":"Рудо","lon":"19.36972","lat":"43.61833","alt":"413.00","desc":"<p>Синоптичка метеоролошка станица <b>Рудо</b></p><p>Адреса:Крагујевачка бб, 73260</p>"},
{"StationID":"14665","StationName":"Фоча","lon":"18.785278","lat":"43.517222","alt":"412.00","desc":"<p>Синоптичка метеоролошка станица <b>Фоча</b></p><p>Адреса:</p>"},
{"StationID":"14667","StationName":"Билећа","lon":"18.42472","lat":"42.86778","alt":"443.00","desc":"<p>Синоптичка метеоролошка станица <b>Билећа</b></p><p>Адреса:Никшићко раскршће бб, 89230</p>"},
{"StationID":"14668","StationName":"Требиње","lon":"18.344287","lat":"42.713946","alt":"300.00","desc":"<p>Синоптичка метеоролошка станица <b>Требиње</b></p><p>Адреса:</p>"},
{"StationID":"0000051115","StationName":"Бања Лука","lon":"17.21278","lat":"44.808006","alt":"0","desc":"<p>Аутоматска метеоролошка станица <b>Бања Лука</b></p>"},
{"StationID":"0000031115","StationName":"Шипово","lon":"17.08775964","lat":"44.28420467","alt":"0","desc":"<p>Аутоматска метеоролошка станица <b>Шипово</b></p>"},
{"StationID":"0000041115","StationName":"Мајевац","lon":"17.02608203","lat":"44.24024245","alt":"0","desc":"<p>Аутоматска метеоролошка станица <b>Мајевац</b></p>"},
{"StationID":"0000071115","StationName":"Мркоњић Град","lon":"17.08350999","lat":"44.41112246","alt":"0","desc":"<p>Аутоматска метеоролошка станица <b>Мркоњић Град</b></p>"},
{"StationID":"0000091115","StationName":"Мањача","lon":"17.00564216","lat":"44.66322537","alt":"0","desc":"<p>Аутоматска метеоролошка станица <b>Мањача</b></p>"},
{"StationID":"0000101115","StationName":"Крупа на Врбасу","lon":"17.14394099","lat":"44.61511606","alt":"0","desc":"<p>Аутоматска метеоролошка станица <b>Крупа на Врбасу</b></p>"},
{"StationID":"0000111115","StationName":"Србац","lon":"17.51458101","lat":"45.10289174","alt":"0","desc":"<p>Аутоматска метеоролошка станица <b>Србац</b></p>"},
{"StationID":"0000131115","StationName":"Челинац","lon":"17.34731904","lat":"44.73373193","alt":"0","desc":"<p>Аутоматска метеоролошка станица <b>Челинац</b></p>"},
{"StationID":"0000141115","StationName":"Кнежево","lon":"17.31828217","lat":"44.52423602","alt":"0","desc":"<p>Аутоматска метеоролошка станица <b>Кнежево</b></p>"},
{"StationID":"0000151115","StationName":"Котор Варош","lon":"17.38863889","lat":"44.60954305","alt":"0","desc":"<p>Аутоматска метеоролошка станица <b>Котор Варош</b></p>"},
{"StationID":"0000161115","StationName":"ПМФ Бања Лука","lon":"17.199254","lat":"44.778958","alt":"0","desc":"<p>Аутоматска метеоролошка станица <b>PMF B.Luka</b></p>"},
{"StationID":"14551a","StationName":"Добој","lon":"18.095","lat":"44.73861","alt":"147","desc":"<p>Аутоматска метеоролошка станица <b>Добој</b></p>"},
{"StationID":"14659a","StationName":"Калиновик","lon":"18.4463806","lat":"43.5045722","alt":"1070","desc":"<p>Аутоматска метеоролошка станица <b>Калиновик</b></p>"},
{"StationID":"14531a","StationName":"Рибник","lon":"16.815","lat":"44.40667","alt":"305","desc":"<p>Аутоматска метеоролошка станица <b>Рибник</b></p>"},
{"StationID":"14529a","StationName":"Доњи Дубовик","lon":"16.319858","lat":"44.891283","alt":"0","desc":"<p>Аутоматска метеоролошка станица <b>Доњи Дубовик</b></p>"},
{"StationID":"14533a","StationName":"Мљечаница","lon":"16.74335","lat":"45.09806","alt":"0","desc":"<p>Аутоматска метеоролошка станица <b>Бања Мљечаница</b></p>"}
]}
